message706 := $GNGLL,3958.59109,N,03244.28490,E,072222.00,A,A*75
message707 := $GNRMC,072223.00,A,3958.59211,N,03244.28744,E,0.139,,260724,,,A,V*19
message708 := $GNVTG,,T,,M,0.139,N,0.257,K,A*36
message709 := $GNGGA,072223.00,3958.59211,N,03244.28744,E,1,05,2.30,894.2,M,36.2,M,,*45
message710 := $GNGSA,A,3,10,32,26,08,,,,,,,,,3.14,2.30,2.14,1*0D
message711 := $GNGSA,A,3,,,,,,,,,,,,,3.14,2.30,2.14,3*03
message712 := $GNGSA,A,3,14,,,,,,,,,,,,3.14,2.30,2.14,4*01
message713 := $GNGSA,A,3,,,,,,,,,,,,,3.14,2.30,2.14,5*05
message714 := $GNGLL,3958.59211,N,03244.28744,E,072223.00,A,A*74
message715 := $GNRMC,072224.00,A,3958.59177,N,03244.28699,E,0.384,237.98,260724,,,A,V*01
message716 := $GNVTG,237.98,T,,M,0.384,N,0.712,K,A*2F
message717 := $GNGGA,072224.00,3958.59177,N,03244.28699,E,1,05,2.30,894.0,M,36.2,M,,*42
message718 := $GNGSA,A,3,10,32,26,08,,,,,,,,,3.14,2.30,2.14,1*0D
message719 := $GNGSA,A,3,,,,,,,,,,,,,3.14,2.30,2.14,3*03
message720 := $GNGSA,A,3,14,,,,,,,,,,,,3.14,2.30,2.14,4*01
message721 := $GNGSA,A,3,,,,,,,,,,,,,3.14,2.30,2.14,5*05
message722 := $GNGLL,3958.59177,N,03244.28699,E,072224.00,A,A*71
message723 := $GNRMC,072225.00,A,3958.59210,N,03244.28733,E,0.056,,260724,,,A,V*16
message724 := $GNVTG,,T,,M,0.056,N,0.103,K,A*3C
message725 := $GNGGA,072225.00,3958.59210,N,03244.28733,E,1,05,2.30,893.6,M,36.2,M,,*41
message726 := $GNGSA,A,3,10,32,26,08,,,,,,,,,3.14,2.30,2.14,1*0D
message727 := $GNGSA,A,3,,,,,,,,,,,,,3.14,2.30,2.14,3*03
message728 := $GNGSA,A,3,14,,,,,,,,,,,,3.14,2.30,2.14,4*01
message729 := $GNGSA,A,3,,,,,,,,,,,,,3.14,2.30,2.14,5*05
message730 := $GPGSV,3,1,12,01,,,35,08,32,312,34,10,81,208,23,15,,,27,1*6E
message731 := $GPGSV,3,2,12,16,,,26,18,,,33,23,,,25,26,15,203,29,1*50
message732 := $GPGSV,3,3,12,27,,,37,32,21,156,36,36,44,182,38,49,36,219,34,1*53
message733 := $GAGSV,1,1,01,14,,,32,7*76
message734 := $GBGSV,1,1,02,14,40,183,33,42,,,26,1*4D
message735 := $GQGSV,1,1,00,0*64
message736 := $GNGLL,3958.59210,N,03244.28733,E,072225.00,A,A*73
message737 := $GNRMC,072226.00,A,3958.59247,N,03244.28792,E,0.029,,260724,,,A,V*14
message738 := $GNVTG,,T,,M,0.029,N,0.054,K,A*37
message739 := $GNGGA,072226.00,3958.59247,N,03244.28792,E,1,05,2.31,893.6,M,36.2,M,,*4A
message740 := $GNGSA,A,3,10,32,26,08,,,,,,,,,4.47,2.31,3.82,1*03
message741 := $GNGSA,A,3,,,,,,,,,,,,,4.47,2.31,3.82,3*0D
message742 := $GNGSA,A,3,14,,,,,,,,,,,,4.47,2.31,3.82,4*0F
message743 := $GNGSA,A,3,,,,,,,,,,,,,4.47,2.31,3.82,5*0B
message744 := $GNGLL,3958.59247,N,03244.28792,E,072226.00,A,A*79
message745 := $GNRMC,072227.00,A,3958.59297,N,03244.28867,E,0.068,,260724,,,A,V*18
message746 := $GNVTG,,T,,M,0.068,N,0.126,K,A*36
message747 := $GNGGA,072227.00,3958.59297,N,03244.28867,E,1,05,2.30,893.1,M,36.2,M,,*45
message748 := $GNGSA,A,3,10,32,26,08,,,,,,,,,3.14,2.30,2.15,1*0C
message749 := $GNGSA,A,3,,,,,,,,,,,,,3.14,2.30,2.15,3*02
message750 := $GNGSA,A,3,14,,,,,,,,,,,,3.14,2.30,2.15,4*00
message751 := $GNGSA,A,3,,,,,,,,,,,,,3.14,2.30,2.15,5*04
message752 := $GNGLL,3958.59297,N,03244.28867,E,072227.00,A,A*70
message753 := $GNRMC,072228.00,A,3958.59361,N,03244.28963,E,0.076,,260724,,,A,V*15
message754 := $GNVTG,,T,,M,0.076,N,0.141,K,A*38
message755 := $GNGGA,072228.00,3958.59361,N,03244.28963,E,1,05,2.30,892.0,M,36.2,M,,*47
message756 := $GNGSA,A,3,10,32,26,08,,,,,,,,,3.14,2.30,2.15,1*0C
message757 := $GNGSA,A,3,,,,,,,,,,,,,3.14,2.30,2.15,3*02
message758 := $GNGSA,A,3,14,,,,,,,,,,,,3.14,2.30,2.15,4*00
message759 := $GNGSA,A,3,,,,,,,,,,,,,3.14,2.30,2.15,5*04
message760 := $GNGLL,3958.59361,N,03244.28963,E,072228.00,A,A*72
message761 := $GNRMC,072229.00,A,3958.59452,N,03244.29111,E,0.110,,260724,,,A,V*1E
message762 := $GNVTG,,T,,M,0.110,N,0.203,K,A*3C
message763 := $GNGGA,072229.00,3958.59452,N,03244.29111,E,1,05,2.31,891.4,M,36.2,M,,*4B
message764 := $GNGSA,A,3,10,32,26,08,,,,,,,,,4.46,2.31,3.82,1*02
message765 := $GNGSA,A,3,,,,,,,,,,,,,4.46,2.31,3.82,3*0C
message766 := $GNGSA,A,3,14,,,,,,,,,,,,4.46,2.31,3.82,4*0E
message767 := $GNGSA,A,3,,,,,,,,,,,,,4.46,2.31,3.82,5*0A
message768 := $GNGLL,3958.59452,N,03244.29111,E,072229.00,A,A*78
message769 := $GNRMC,072230.00,A,3958.59527,N,03244.29227,E,0.103,,260724,,,A,V*11
message770 := $GNVTG,,T,,M,0.103,N,0.191,K,A*36
message771 := $GNGGA,072230.00,3958.59527,N,03244.29227,E,1,05,2.30,890.7,M,36.2,M,,*45
message772 := $GNGSA,A,3,10,32,26,08,,,,,,,,,3.14,2.30,2.15,1*0C
message773 := $GNGSA,A,3,,,,,,,,,,,,,3.14,2.30,2.15,3*02
message774 := $GNGSA,A,3,14,,,,,,,,,,,,3.14,2.30,2.15,4*00
message775 := $GNGSA,A,3,,,,,,,,,,,,,3.14,2.30,2.15,5*04
message776 := $GPGSV,3,1,12,01,,,30,08,32,312,34,10,81,208,29,15,,,28,1*6E
message777 := $GPGSV,3,2,12,16,,,30,18,,,31,23,,,22,26,15,203,26,1*5D
message778 := $GPGSV,3,3,12,27,,,37,32,21,156,35,36,44,182,38,49,36,219,34,1*50
message779 := $GAGSV,1,1,01,14,,,30,7*74
message780 := $GBGSV,1,1,03,11,,,30,14,40,183,30,42,,,30,1*4B
message781 := $GQGSV,1,1,00,0*64
message782 := $GNGLL,3958.59527,N,03244.29227,E,072230.00,A,A*75
message783 := $GNRMC,072231.00,A,3958.59598,N,03244.29332,E,0.081,,260724,,,A,V*1A
message784 := $GNVTG,,T,,M,0.081,N,0.150,K,A*30
message785 := $GNGGA,072231.00,3958.59598,N,03244.29332,E,1,05,2.30,889.5,M,36.2,M,,*4F
message786 := $GNGSA,A,3,10,32,26,08,,,,,,,,,3.15,2.30,2.15,1*0D
message787 := $GNGSA,A,3,,,,,,,,,,,,,3.15,2.30,2.15,3*03
message788 := $GNGSA,A,3,14,,,,,,,,,,,,3.15,2.30,2.15,4*01
message789 := $GNGSA,A,3,,,,,,,,,,,,,3.15,2.30,2.15,5*05
message790 := $GNGLL,3958.59598,N,03244.29332,E,072231.00,A,A*75
message791 := $GNRMC,072232.00,A,3958.59645,N,03244.29406,E,0.071,,260724,,,A,V*15
message792 := $GNVTG,,T,,M,0.071,N,0.131,K,A*38
message793 := $GNGGA,072232.00,3958.59645,N,03244.29406,E,1,05,2.31,889.3,M,36.2,M,,*48
message794 := $GNGSA,A,3,10,32,26,08,,,,,,,,,4.46,2.31,3.82,1*02
message795 := $GNGSA,A,3,,,,,,,,,,,,,4.46,2.31,3.82,3*0C
message796 := $GNGSA,A,3,14,,,,,,,,,,,,4.46,2.31,3.82,4*0E
message797 := $GNGSA,A,3,,,,,,,,,,,,,4.46,2.31,3.82,5*0A
message798 := $GNGLL,3958.59645,N,03244.29406,E,072232.00,A,A*75
message799 := $GNRMC,072233.00,A,3958.59712,N,03244.29513,E,0.092,,260724,,,A,V*1F
message800 := $GNVTG,,T,,M,0.092,N,0.171,K,A*31
message801 := $GNGGA,072233.00,3958.59712,N,03244.29513,E,1,05,2.30,888.9,M,36.2,M,,*45
message802 := $GNGSA,A,3,10,32,26,08,,,,,,,,,3.15,2.30,2.15,1*0D
message803 := $GNGSA,A,3,,,,,,,,,,,,,3.15,2.30,2.15,3*03
message804 := $GNGSA,A,3,14,,,,,,,,,,,,3.15,2.30,2.15,4*01
message805 := $GNGSA,A,3,,,,,,,,,,,,,3.15,2.30,2.15,5*05
message806 := $GNGLL,3958.59712,N,03244.29513,E,072233.00,A,A*72
message807 := $GNRMC,072234.00,A,3958.59770,N,03244.29596,E,0.096,,260724,,,A,V*15
message808 := $GNVTG,,T,,M,0.096,N,0.178,K,A*3C
message809 := $GNGGA,072234.00,3958.59770,N,03244.29596,E,1,05,2.30,887.6,M,36.2,M,,*4B
message810 := $GNGSA,A,3,10,32,26,08,,,,,,,,,3.15,2.30,2.15,1*0D
message811 := $GNGSA,A,3,,,,,,,,,,,,,3.15,2.30,2.15,3*03
message812 := $GNGSA,A,3,14,,,,,,,,,,,,3.15,2.30,2.15,4*01
message813 := $GNGSA,A,3,,,,,,,,,,,,,3.15,2.30,2.15,5*05
message814 := $GNGLL,3958.59770,N,03244.29596,E,072234.00,A,A*7C
message815 := $GNRMC,072235.00,A,3958.59784,N,03244.29602,E,0.113,,260724,,,A,V*1D
message816 := $GNVTG,,T,,M,0.113,N,0.209,K,A*35
message817 := $GNGGA,072235.00,3958.59784,N,03244.29602,E,1,05,2.30,887.0,M,36.2,M,,*49
message818 := $GNGSA,A,3,10,32,26,08,,,,,,,,,3.15,2.30,2.15,1*0D
message819 := $GNGSA,A,3,,,,,,,,,,,,,3.15,2.30,2.15,3*03
message820 := $GNGSA,A,3,14,,,,,,,,,,,,3.15,2.30,2.15,4*01
message821 := $GNGSA,A,3,,,,,,,,,,,,,3.15,2.30,2.15,5*05
message822 := $GPGSV,3,1,12,01,,,32,08,32,312,34,10,81,209,23,15,,,28,1*67
message823 := $GPGSV,3,2,12,16,,,29,18,,,29,23,,,22,26,15,203,28,1*52
message824 := $GPGSV,3,3,12,27,,,36,32,21,156,35,36,44,182,39,49,36,219,32,1*56
message825 := $GAGSV,1,1,01,14,,,31,7*75
message826 := $GBGSV,1,1,04,11,,,30,12,,,31,14,40,183,29,42,,,25,1*41
message827 := $GQGSV,1,1,00,0*64
message828 := $GNGLL,3958.59784,N,03244.29602,E,072235.00,A,A*78
message829 := $GNRMC,072236.00,A,3958.59786,N,03244.29580,E,0.075,,260724,,,A,V*14
message830 := $GNVTG,,T,,M,0.075,N,0.138,K,A*35
message831 := $GNGGA,072236.00,3958.59786,N,03244.29580,E,1,05,2.30,885.4,M,36.2,M,,*47
message832 := $GNGSA,A,3,10,32,26,08,,,,,,,,,3.15,2.30,2.15,1*0D
message833 := $GNGSA,A,3,,,,,,,,,,,,,3.15,2.30,2.15,3*03
message834 := $GNGSA,A,3,14,,,,,,,,,,,,3.15,2.30,2.15,4*01
message835 := $GNGSA,A,3,,,,,,,,,,,,,3.15,2.30,2.15,5*05
message836 := $GNGLL,3958.59786,N,03244.29580,E,072236.00,A,A*70
message837 := $GNRMC,072237.00,A,3958.59803,N,03244.29570,E,0.078,,260724,,,A,V*15
message838 := $GNVTG,,T,,M,0.078,N,0.145,K,A*32
message839 := $GNGGA,072237.00,3958.59803,N,03244.29570,E,1,05,2.30,882.8,M,36.2,M,,*40
message840 := $GNGSA,A,3,10,32,26,08,,,,,,,,,3.15,2.30,2.15,1*0D
message841 := $GNGSA,A,3,,,,,,,,,,,,,3.15,2.30,2.15,3*03
message842 := $GNGSA,A,3,14,,,,,,,,,,,,3.15,2.30,2.15,4*01
message843 := $GNGSA,A,3,,,,,,,,,,,,,3.15,2.30,2.15,5*05
message844 := $GNGLL,3958.59803,N,03244.29570,E,072237.00,A,A*7C
message845 := $GNRMC,072238.00,A,3958.59804,N,03244.29560,E,0.060,,260724,,,A,V*15
message846 := $GNVTG,,T,,M,0.060,N,0.111,K,A*3A
message847 := $GNGGA,072238.00,3958.59804,N,03244.29560,E,1,05,2.30,882.8,M,36.2,M,,*49
message848 := $GNGSA,A,3,10,32,26,08,,,,,,,,,3.15,2.30,2.15,1*0D
message849 := $GNGSA,A,3,,,,,,,,,,,,,3.15,2.30,2.15,3*03
message850 := $GNGSA,A,3,14,,,,,,,,,,,,3.15,2.30,2.15,4*01
message851 := $GNGSA,A,3,,,,,,,,,,,,,3.15,2.30,2.15,5*05
message852 := $GNGLL,3958.59804,N,03244.29560,E,072238.00,A,A*75
message853 := $GNRMC,072239.00,A,3958.59793,N,03244.29551,E,0.050,,260724,,,A,V*14
message854 := $GNVTG,,T,,M,0.050,N,0.093,K,A*32
message855 := $GNGGA,072239.00,3958.59793,N,03244.29551,E,1,05,2.30,884.6,M,36.2,M,,*43
message856 := $GNGSA,A,3,10,32,26,08,,,,,,,,,3.15,2.30,2.15,1*0D
message857 := $GNGSA,A,3,,,,,,,,,,,,,3.15,2.30,2.15,3*03
message858 := $GNGSA,A,3,14,,,,,,,,,,,,3.15,2.30,2.15,4*01
message859 := $GNGSA,A,3,,,,,,,,,,,,,3.15,2.30,2.15,5*05
message860 := $GNGLL,3958.59793,N,03244.29551,E,072239.00,A,A*77
message861 := $GNRMC,072240.00,A,3958.59765,N,03244.29520,E,0.171,,260724,,,A,V*17
message862 := $GNVTG,,T,,M,0.171,N,0.317,K,A*3F
message863 := $GNGGA,072240.00,3958.59765,N,03244.29520,E,1,05,2.30,887.3,M,36.2,M,,*44
message864 := $GNGSA,A,3,10,32,26,08,,,,,,,,,3.15,2.30,2.15,1*0D
message865 := $GNGSA,A,3,,,,,,,,,,,,,3.15,2.30,2.15,3*03
message866 := $GNGSA,A,3,14,,,,,,,,,,,,3.15,2.30,2.15,4*01
message867 := $GNGSA,A,3,,,,,,,,,,,,,3.15,2.30,2.15,5*05
message868 := $GPGSV,3,1,12,01,,,33,08,32,312,34,10,81,209,27,15,,,28,1*62
message869 := $GPGSV,3,2,12,16,,,27,18,,,32,23,,,20,26,15,203,28,1*54
message870 := $GPGSV,3,3,12,27,,,36,32,21,156,36,36,44,182,39,49,36,219,33,1*54
message871 := $GAGSV,1,1,01,14,47,301,30,7*45
message872 := $GBGSV,1,1,04,11,,,30,12,,,26,14,40,183,25,42,,,30,1*4F
message873 := $GQGSV,1,1,00,0*64
message874 := $GNGLL,3958.59765,N,03244.29520,E,072240.00,A,A*76
message875 := $GNRMC,072241.00,A,3958.59759,N,03244.29505,E,0.241,,260724,,,A,V*1E
message876 := $GNVTG,,T,,M,0.241,N,0.446,K,A*3C
message877 := $GNGGA,072241.00,3958.59759,N,03244.29505,E,1,05,2.30,887.4,M,36.2,M,,*4A
message878 := $GNGSA,A,3,10,32,26,08,,,,,,,,,3.15,2.30,2.15,1*0D
message879 := $GNGSA,A,3,,,,,,,,,,,,,3.15,2.30,2.15,3*03
message880 := $GNGSA,A,3,14,,,,,,,,,,,,3.15,2.30,2.15,4*01
message881 := $GNGSA,A,3,,,,,,,,,,,,,3.15,2.30,2.15,5*05
message882 := $GNGLL,3958.59759,N,03244.29505,E,072241.00,A,A*7F
message883 := $GNRMC,072242.00,A,3958.59773,N,03244.29501,E,0.067,,260724,,,A,V*17
message884 := $GNVTG,,T,,M,0.067,N,0.124,K,A*3B
message885 := $GNGGA,072242.00,3958.59773,N,03244.29501,E,1,05,2.30,885.3,M,36.2,M,,*40
message886 := $GNGSA,A,3,10,32,26,08,,,,,,,,,3.15,2.30,2.15,1*0D
message887 := $GNGSA,A,3,,,,,,,,,,,,,3.15,2.30,2.15,3*03
message888 := $GNGSA,A,3,14,,,,,,,,,,,,3.15,2.30,2.15,4*01
message889 := $GNGSA,A,3,,,,,,,,,,,,,3.15,2.30,2.15,5*05
message890 := $GNGLL,3958.59773,N,03244.29501,E,072242.00,A,A*70
message891 := $GNRMC,072243.00,A,3958.59787,N,03244.29493,E,0.237,237.39,260724,,,A,V*02
message892 := $GNVTG,237.39,T,,M,0.237,N,0.438,K,A*26
message893 := $GNGGA,072243.00,3958.59787,N,03244.29493,E,1,05,2.30,883.1,M,36.2,M,,*44
message894 := $GNGSA,A,3,10,32,26,08,,,,,,,,,3.15,2.30,2.15,1*0D
message895 := $GNGSA,A,3,,,,,,,,,,,,,3.15,2.30,2.15,3*03
message896 := $GNGSA,A,3,14,,,,,,,,,,,,3.15,2.30,2.15,4*01
message897 := $GNGSA,A,3,,,,,,,,,,,,,3.15,2.30,2.15,5*05
message898 := $GNGLL,3958.59787,N,03244.29493,E,072243.00,A,A*70
message899 := $GNRMC,072244.00,A,3958.59794,N,03244.29486,E,0.113,,260724,,,A,V*14
message900 := $GNVTG,,T,,M,0.113,N,0.209,K,A*35
message901 := $GNGGA,072244.00,3958.59794,N,03244.29486,E,1,05,2.30,881.6,M,36.2,M,,*40
message902 := $GNGSA,A,3,10,32,26,08,,,,,,,,,3.15,2.30,2.15,1*0D
message903 := $GNGSA,A,3,,,,,,,,,,,,,3.15,2.30,2.15,3*03
message904 := $GNGSA,A,3,14,,,,,,,,,,,,3.15,2.30,2.15,4*01
message905 := $GNGSA,A,3,,,,,,,,,,,,,3.15,2.30,2.15,5*05
message906 := $GNGLL,3958.59794,N,03244.29486,E,072244.00,A,A*71
message907 := $GNRMC,072245.00,A,3958.59799,N,03244.29481,E,0.135,,260724,,,A,V*1B
message908 := $GNVTG,,T,,M,0.135,N,0.250,K,A*3D
message909 := $GNGGA,072245.00,3958.59799,N,03244.29481,E,1,05,2.30,880.7,M,36.2,M,,*4B
message910 := $GNGSA,A,3,10,32,26,08,,,,,,,,,3.15,2.30,2.15,1*0D
message911 := $GNGSA,A,3,,,,,,,,,,,,,3.15,2.30,2.15,3*03
message912 := $GNGSA,A,3,14,,,,,,,,,,,,3.15,2.30,2.15,4*01
message913 := $GNGSA,A,3,,,,,,,,,,,,,3.15,2.30,2.15,5*05
message914 := $GPGSV,3,1,12,01,,,31,08,32,312,35,10,81,209,32,15,,,29,1*64
message915 := $GPGSV,3,2,12,16,,,30,18,,,29,23,,,22,26,15,203,26,1*54
message916 := $GPGSV,3,3,12,27,,,35,32,21,156,36,36,44,182,38,49,36,219,32,1*57
message917 := $GAGSV,1,1,01,14,47,301,30,7*45
message918 := $GBGSV,2,1,06,11,,,29,12,,,27,14,40,183,29,42,,,30,1*4B
message919 := $GBGSV,2,2,06,43,,,38,50,,,33,1*79
message920 := $GQGSV,1,1,00,0*64
message921 := $GNGLL,3958.59799,N,03244.29481,E,072245.00,A,A*7A
message922 := $GNRMC,072246.00,A,3958.59799,N,03244.29472,E,0.143,,260724,,,A,V*15
message923 := $GNVTG,,T,,M,0.143,N,0.265,K,A*3A
message924 := $GNGGA,072246.00,3958.59799,N,03244.29472,E,1,05,2.30,880.3,M,36.2,M,,*40
message925 := $GNGSA,A,3,10,32,26,08,,,,,,,,,3.15,2.30,2.15,1*0D
message926 := $GNGSA,A,3,,,,,,,,,,,,,3.15,2.30,2.15,3*03
message927 := $GNGSA,A,3,14,,,,,,,,,,,,3.15,2.30,2.15,4*01
message928 := $GNGSA,A,3,,,,,,,,,,,,,3.15,2.30,2.15,5*05
message929 := $GNGLL,3958.59799,N,03244.29472,E,072246.00,A,A*75
message930 := $GNRMC,072247.00,A,3958.59798,N,03244.29466,E,0.087,,260724,,,A,V*19
message931 := $GNVTG,,T,,M,0.087,N,0.161,K,A*34
message932 := $GNGGA,072247.00,3958.59798,N,03244.29466,E,1,05,2.30,879.9,M,36.2,M,,*49
message933 := $GNGSA,A,3,10,32,26,08,,,,,,,,,3.15,2.30,2.15,1*0D
message934 := $GNGSA,A,3,,,,,,,,,,,,,3.15,2.30,2.15,3*03
message935 := $GNGSA,A,3,14,,,,,,,,,,,,3.15,2.30,2.15,4*01
message936 := $GNGSA,A,3,,,,,,,,,,,,,3.15,2.30,2.15,5*05
message937 := $GNGLL,3958.59798,N,03244.29466,E,072247.00,A,A*70
message938 := $GNRMC,072248.00,A,3958.59798,N,03244.29457,E,0.150,,260724,,,A,V*1F
message939 := $GNVTG,,T,,M,0.150,N,0.278,K,A*34
message940 := $GNGGA,072248.00,3958.59798,N,03244.29457,E,1,05,2.30,879.5,M,36.2,M,,*48
message941 := $GNGSA,A,3,10,32,26,08,,,,,,,,,3.15,2.30,2.15,1*0D
message942 := $GNGSA,A,3,,,,,,,,,,,,,3.15,2.30,2.15,3*03
message943 := $GNGSA,A,3,14,,,,,,,,,,,,3.15,2.30,2.15,4*01
message944 := $GNGSA,A,3,,,,,,,,,,,,,3.15,2.30,2.15,5*05
message945 := $GNGLL,3958.59798,N,03244.29457,E,072248.00,A,A*7D
message946 := $GNRMC,072249.00,A,3958.59798,N,03244.29452,E,0.035,,260724,,,A,V*19
message947 := $GNVTG,,T,,M,0.035,N,0.065,K,A*38
message948 := $GNGGA,072249.00,3958.59798,N,03244.29452,E,1,05,2.30,879.2,M,36.2,M,,*4B
message949 := $GNGSA,A,3,10,32,26,08,,,,,,,,,3.15,2.30,2.15,1*0D
message950 := $GNGSA,A,3,,,,,,,,,,,,,3.15,2.30,2.15,3*03
message951 := $GNGSA,A,3,14,,,,,,,,,,,,3.15,2.30,2.15,4*01
message952 := $GNGSA,A,3,,,,,,,,,,,,,3.15,2.30,2.15,5*05
message953 := $GNGLL,3958.59798,N,03244.29452,E,072249.00,A,A*79
message954 := $GNRMC,072250.00,A,3958.59797,N,03244.29443,E,0.374,235.55,260724,,,A,V*02
message955 := $GNVTG,235.55,T,,M,0.374,N,0.692,K,A*2A
message956 := $GNGGA,072250.00,3958.59797,N,03244.29443,E,1,05,2.30,878.9,M,36.2,M,,*46
message957 := $GNGSA,A,3,10,32,26,08,,,,,,,,,3.15,2.30,2.15,1*0D
message958 := $GNGSA,A,3,,,,,,,,,,,,,3.15,2.30,2.15,3*03
message959 := $GNGSA,A,3,14,,,,,,,,,,,,3.15,2.30,2.15,4*01
message960 := $GNGSA,A,3,,,,,,,,,,,,,3.15,2.30,2.15,5*05
message961 := $GPGSV,3,1,12,01,,,31,08,32,312,35,10,81,209,33,15,,,29,1*65
message962 := $GPGSV,3,2,12,16,,,29,18,,,31,23,,,24,26,15,203,23,1*56
message963 := $GPGSV,3,3,12,27,,,36,32,21,156,35,36,44,182,38,49,36,219,32,1*57
message964 := $GAGSV,1,1,01,14,47,301,29,7*4D
message965 := $GBGSV,2,1,06,11,,,29,12,,,28,14,40,183,28,42,,,31,1*44
message966 := $GBGSV,2,2,06,43,,,37,50,,,32,1*77
message967 := $GQGSV,1,1,00,0*64
message968 := $GNGLL,3958.59797,N,03244.29443,E,072250.00,A,A*7E
message969 := $GNRMC,072251.00,A,3958.59809,N,03244.29460,E,0.691,105.43,260724,,,A,V*03
message970 := $GNVTG,105.43,T,,M,0.691,N,1.281,K,A*24
message971 := $GNGGA,072251.00,3958.59809,N,03244.29460,E,1,05,2.30,878.6,M,36.2,M,,*41
message972 := $GNGSA,A,3,10,32,26,08,,,,,,,,,3.15,2.30,2.15,1*0D
message973 := $GNGSA,A,3,,,,,,,,,,,,,3.15,2.30,2.15,3*03
message974 := $GNGSA,A,3,14,,,,,,,,,,,,3.15,2.30,2.15,4*01
message975 := $GNGSA,A,3,,,,,,,,,,,,,3.15,2.30,2.15,5*05
message976 := $GNGLL,3958.59809,N,03244.29460,E,072251.00,A,A*76
message977 := $GNRMC,072252.00,A,3958.59813,N,03244.29464,E,0.262,99.78,260724,,,A,V*3B
message978 := $GNVTG,99.78,T,,M,0.262,N,0.486,K,A*10
message979 := $GNGGA,072252.00,3958.59813,N,03244.29464,E,1,05,2.30,878.3,M,36.2,M,,*48
message980 := $GNGSA,A,3,10,32,26,08,,,,,,,,,3.15,2.30,2.15,1*0D
message981 := $GNGSA,A,3,,,,,,,,,,,,,3.15,2.30,2.15,3*03
message982 := $GNGSA,A,3,14,,,,,,,,,,,,3.15,2.30,2.15,4*01
message983 := $GNGSA,A,3,,,,,,,,,,,,,3.15,2.30,2.15,5*05
message984 := $GNGLL,3958.59813,N,03244.29464,E,072252.00,A,A*7A
message985 := $GNRMC,072253.00,A,3958.59813,N,03244.29456,E,0.174,,260724,,,A,V*1E
message986 := $GNVTG,,T,,M,0.174,N,0.323,K,A*3D
message987 := $GNGGA,072253.00,3958.59813,N,03244.29456,E,1,05,2.30,878.0,M,36.2,M,,*4B
message988 := $GNGSA,A,3,10,32,26,08,,,,,,,,,3.15,2.30,2.15,1*0D
message989 := $GNGSA,A,3,,,,,,,,,,,,,3.15,2.30,2.15,3*03
message990 := $GNGSA,A,3,14,,,,,,,,,,,,3.15,2.30,2.15,4*01
message991 := $GNGSA,A,3,,,,,,,,,,,,,3.15,2.30,2.15,5*05
message992 := $GNGLL,3958.59813,N,03244.29456,E,072253.00,A,A*7A
message993 := $GNRMC,072254.00,A,3958.59820,N,03244.29466,E,0.075,,260724,,,A,V*1A
message994 := $GNVTG,,T,,M,0.075,N,0.139,K,A*34
message995 := $GNGGA,072254.00,3958.59820,N,03244.29466,E,1,05,2.30,877.7,M,36.2,M,,*47
message996 := $GNGSA,A,3,10,32,26,08,,,,,,,,,3.15,2.30,2.15,1*0D
message997 := $GNGSA,A,3,,,,,,,,,,,,,3.15,2.30,2.15,3*03
message998 := $GNGSA,A,3,14,,,,,,,,,,,,3.15,2.30,2.15,4*01
message999 := $GNGSA,A,3,,,,,,,,,,,,,3.15,2.30,2.15,5*05
message1000 := $GNGLL,3958.59820,N,03244.29466,E,072254.00,A,A*7E
message1001 := $GNRMC,072255.00,A,3958.59824,N,03244.29469,E,0.274,173.01,260724,,,A,V*09
message1002 := $GNVTG,173.01,T,,M,0.274,N,0.507,K,A*24
message1003 := $GNGGA,072255.00,3958.59824,N,03244.29469,E,1,07,2.30,877.5,M,36.2,M,,*4D
message1004 := $GNGSA,A,3,10,27,32,26,15,08,,,,,,,3.15,2.30,2.15,1*0C
message1005 := $GNGSA,A,3,,,,,,,,,,,,,3.15,2.30,2.15,3*03
message1006 := $GNGSA,A,3,14,,,,,,,,,,,,3.15,2.30,2.15,4*01
message1007 := $GNGSA,A,3,,,,,,,,,,,,,3.15,2.30,2.15,5*05
message1008 := $GPGSV,3,1,12,01,,,30,08,32,312,34,10,81,209,34,15,10,039,28,1*58
message1009 := $GPGSV,3,2,12,16,,,27,18,,,29,23,,,21,26,15,203,27,1*50
message1010 := $GPGSV,3,3,12,27,67,304,35,32,21,156,33,36,44,182,38,49,36,219,28,1*6F
message1011 := $GAGSV,1,1,01,14,47,301,28,7*4C
message1012 := $GBGSV,2,1,06,11,,,32,12,,,28,14,40,183,29,42,,,27,1*48
message1013 := $GBGSV,2,2,06,43,,,38,50,,,32,1*78
message1014 := $GQGSV,1,1,00,0*64
message1015 := $GNGLL,3958.59824,N,03244.29469,E,072255.00,A,A*74
message1016 := $GNRMC,072256.00,A,3958.59813,N,03244.29447,E,0.066,,260724,,,A,V*19
message1017 := $GNVTG,,T,,M,0.066,N,0.122,K,A*3C
message1018 := $GNGGA,072256.00,3958.59813,N,03244.29447,E,1,07,1.18,877.8,M,36.2,M,,*42
message1019 := $GNGSA,A,3,10,27,32,26,15,08,,,,,,,1.85,1.18,1.42,1*0F
message1020 := $GNGSA,A,3,,,,,,,,,,,,,1.85,1.18,1.42,3*00
message1021 := $GNGSA,A,3,14,,,,,,,,,,,,1.85,1.18,1.42,4*02
message1022 := $GNGSA,A,3,,,,,,,,,,,,,1.85,1.18,1.42,5*06
message1023 := $GNGLL,3958.59813,N,03244.29447,E,072256.00,A,A*7F
message1024 := $GNRMC,072257.00,A,3958.59823,N,03244.29462,E,0.093,,260724,,,A,V*16
message1025 := $GNVTG,,T,,M,0.093,N,0.172,K,A*33
message1026 := $GNGGA,072257.00,3958.59823,N,03244.29462,E,1,07,2.30,877.6,M,36.2,M,,*40
message1027 := $GNGSA,A,3,10,27,32,26,15,08,,,,,,,3.05,2.30,2.01,1*08
message1028 := $GNGSA,A,3,,,,,,,,,,,,,3.05,2.30,2.01,3*07
message1029 := $GNGSA,A,3,14,,,,,,,,,,,,3.05,2.30,2.01,4*05
message1030 := $GNGSA,A,3,,,,,,,,,,,,,3.05,2.30,2.01,5*01
message1031 := $GNGLL,3958.59823,N,03244.29462,E,072257.00,A,A*7A
message1032 := $GNRMC,072258.00,A,3958.59834,N,03244.29480,E,0.042,,260724,,,A,V*1F
message1033 := $GNVTG,,T,,M,0.042,N,0.077,K,A*3B
message1034 := $GNGGA,072258.00,3958.59834,N,03244.29480,E,1,07,1.20,877.5,M,36.2,M,,*44
message1035 := $GNGSA,A,3,10,27,32,26,15,08,,,,,,,2.00,1.20,1.60,1*0A
message1036 := $GNGSA,A,3,,,,,,,,,,,,,2.00,1.20,1.60,3*05
message1037 := $GNGSA,A,3,14,,,,,,,,,,,,2.00,1.20,1.60,4*07
message1038 := $GNGSA,A,3,,,,,,,,,,,,,2.00,1.20,1.60,5*03
message1039 := $GNGLL,3958.59834,N,03244.29480,E,072258.00,A,A*7F
message1040 := $GNRMC,072259.00,A,3958.59840,N,03244.29488,E,0.079,,260724,,,A,V*1D
message1041 := $GNVTG,,T,,M,0.079,N,0.145,K,A*33
message1042 := $GNGGA,072259.00,3958.59840,N,03244.29488,E,1,07,1.18,877.3,M,36.2,M,,*43
message1043 := $GNGSA,A,3,10,27,32,26,15,08,,,,,,,1.85,1.18,1.42,1*0F
message1044 := $GNGSA,A,3,,,,,,,,,,,,,1.85,1.18,1.42,3*00
message1045 := $GNGSA,A,3,14,,,,,,,,,,,,1.85,1.18,1.42,4*02
message1046 := $GNGSA,A,3,,,,,,,,,,,,,1.85,1.18,1.42,5*06
message1047 := $GNGLL,3958.59840,N,03244.29488,E,072259.00,A,A*75
message1048 := $GNRMC,072300.00,A,3958.59839,N,03244.29486,E,0.083,,260724,,,A,V*15
message1049 := $GNVTG,,T,,M,0.083,N,0.154,K,A*36
message1050 := $GNGGA,072300.00,3958.59839,N,03244.29486,E,1,07,1.18,877.3,M,36.2,M,,*4E
message1051 := $GNGSA,A,3,10,27,32,26,15,08,,,,,,,1.85,1.18,1.42,1*0F
message1052 := $GNGSA,A,3,,,,,,,,,,,,,1.85,1.18,1.42,3*00
message1053 := $GNGSA,A,3,14,,,,,,,,,,,,1.85,1.18,1.42,4*02
message1054 := $GNGSA,A,3,,,,,,,,,,,,,1.85,1.18,1.42,5*06
message1055 := $GPGSV,3,1,12,01,,,32,08,32,312,35,10,81,209,33,15,10,039,27,1*53
message1056 := $GPGSV,3,2,12,16,,,26,18,,,29,23,,,25,26,15,203,28,1*5A
message1057 := $GPGSV,3,3,12,27,67,304,35,32,21,156,32,36,44,182,39,49,36,219,30,1*66
message1058 := $GAGSV,1,1,01,14,47,301,29,7*4D
message1059 := $GBGSV,2,1,07,11,,,30,12,,,30,14,40,183,29,33,,,33,1*41
message1060 := $GBGSV,2,2,07,42,,,28,43,,,37,50,,,35,1*7D
message1061 := $GQGSV,1,1,00,0*64
message1062 := $GNGLL,3958.59839,N,03244.29486,E,072300.00,A,A*78
message1063 := $GNRMC,072301.00,A,3958.59835,N,03244.29480,E,0.107,,260724,,,A,V*13
message1064 := $GNVTG,,T,,M,0.107,N,0.199,K,A*3A
message1065 := $GNGGA,072301.00,3958.59835,N,03244.29480,E,1,07,1.20,877.2,M,36.2,M,,*4F
message1066 := $GNGSA,A,3,10,27,32,26,15,08,,,,,,,2.00,1.20,1.60,1*0A
message1067 := $GNGSA,A,3,,,,,,,,,,,,,2.00,1.20,1.60,3*05
message1068 := $GNGSA,A,3,14,,,,,,,,,,,,2.00,1.20,1.60,4*07
message1069 := $GNGSA,A,3,,,,,,,,,,,,,2.00,1.20,1.60,5*03
message1070 := $GNGLL,3958.59835,N,03244.29480,E,072301.00,A,A*73
message1071 := $GNRMC,072302.00,A,3958.59845,N,03244.29497,E,0.108,,260724,,,A,V*1E
message1072 := $GNVTG,,T,,M,0.108,N,0.199,K,A*35
message1073 := $GNGGA,072302.00,3958.59845,N,03244.29497,E,1,07,2.30,877.1,M,36.2,M,,*4C
message1074 := $GNGSA,A,3,10,27,32,26,15,08,,,,,,,3.05,2.30,2.01,1*08
message1075 := $GNGSA,A,3,,,,,,,,,,,,,3.05,2.30,2.01,3*07
message1076 := $GNGSA,A,3,14,,,,,,,,,,,,3.05,2.30,2.01,4*05
message1077 := $GNGSA,A,3,,,,,,,,,,,,,3.05,2.30,2.01,5*01
message1078 := $GNGLL,3958.59845,N,03244.29497,E,072302.00,A,A*71
message1079 := $GNRMC,072303.00,A,3958.59841,N,03244.29489,E,0.044,,260724,,,A,V*1D
message1080 := $GNVTG,,T,,M,0.044,N,0.081,K,A*34
message1081 := $GNGGA,072303.00,3958.59841,N,03244.29489,E,1,08,1.11,877.0,M,36.2,M,,*48
message1082 := $GNGSA,A,3,10,27,32,26,15,08,,,,,,,1.64,1.11,1.21,1*0C
message1083 := $GNGSA,A,3,,,,,,,,,,,,,1.64,1.11,1.21,3*03
message1084 := $GNGSA,A,3,14,11,,,,,,,,,,,1.64,1.11,1.21,4*01
message1085 := $GNGSA,A,3,,,,,,,,,,,,,1.64,1.11,1.21,5*05
message1086 := $GNGLL,3958.59841,N,03244.29489,E,072303.00,A,A*7B
message1087 := $GNRMC,072304.00,A,3958.59826,N,03244.29464,E,0.167,,260724,,,A,V*18
message1088 := $GNVTG,,T,,M,0.167,N,0.309,K,A*37
message1089 := $GNGGA,072304.00,3958.59826,N,03244.29464,E,1,08,1.14,876.9,M,36.2,M,,*40
message1090 := $GNGSA,A,3,10,27,32,26,15,08,,,,,,,1.71,1.14,1.28,1*04
message1091 := $GNGSA,A,3,,,,,,,,,,,,,1.71,1.14,1.28,3*0B
message1092 := $GNGSA,A,3,14,11,,,,,,,,,,,1.71,1.14,1.28,4*09
message1093 := $GNGSA,A,3,,,,,,,,,,,,,1.71,1.14,1.28,5*0D
message1094 := $GNGLL,3958.59826,N,03244.29464,E,072304.00,A,A*7E
message1095 := $GNRMC,072305.00,A,3958.59802,N,03244.29422,E,0.063,,260724,,,A,V*18
message1096 := $GNVTG,,T,,M,0.063,N,0.116,K,A*3E
message1097 := $GNGGA,072305.00,3958.59802,N,03244.29422,E,1,08,1.11,877.0,M,36.2,M,,*48
message1098 := $GNGSA,A,3,10,27,32,26,15,08,,,,,,,1.64,1.11,1.21,1*0C
message1099 := $GNGSA,A,3,,,,,,,,,,,,,1.64,1.11,1.21,3*03
message1100 := $GNGSA,A,3,14,11,,,,,,,,,,,1.64,1.11,1.21,4*01
message1101 := $GNGSA,A,3,,,,,,,,,,,,,1.64,1.11,1.21,5*05
message1102 := $GPGSV,3,1,12,01,,,33,08,32,312,36,10,81,209,34,15,10,039,27,1*56
message1103 := $GPGSV,3,2,12,16,,,28,18,,,32,23,,,27,26,15,202,28,1*5D
message1104 := $GPGSV,3,3,12,27,67,304,34,32,21,156,32,36,44,182,39,49,36,219,30,1*67
message1105 := $GAGSV,1,1,01,14,47,301,30,7*45
message1106 := $GBGSV,2,1,07,11,74,051,30,12,,,27,14,40,183,28,33,,,33,1*71
message1107 := $GBGSV,2,2,07,42,,,30,43,,,37,50,,,36,1*77
message1108 := $GQGSV,1,1,00,0*64
message1109 := $GNGLL,3958.59802,N,03244.29422,E,072305.00,A,A*7B
message1110 := $GNRMC,072306.00,A,3958.59772,N,03244.29368,E,0.193,,260724,,,A,V*14
message1111 := $GNVTG,,T,,M,0.193,N,0.358,K,A*38
message1112 := $GNGGA,072306.00,3958.59772,N,03244.29368,E,1,08,1.11,877.2,M,36.2,M,,*48
message1113 := $GNGSA,A,3,10,27,32,26,15,08,,,,,,,1.64,1.11,1.21,1*0C
message1114 := $GNGSA,A,3,,,,,,,,,,,,,1.64,1.11,1.21,3*03
message1115 := $GNGSA,A,3,14,11,,,,,,,,,,,1.64,1.11,1.21,4*01
message1116 := $GNGSA,A,3,,,,,,,,,,,,,1.64,1.11,1.21,5*05
message1117 := $GNGLL,3958.59772,N,03244.29368,E,072306.00,A,A*79
message1118 := $GNRMC,072307.00,A,3958.59749,N,03244.29332,E,0.172,,260724,,,A,V*1D
message1119 := $GNVTG,,T,,M,0.172,N,0.319,K,A*32
message1120 := $GNGGA,072307.00,3958.59749,N,03244.29332,E,1,08,1.95,877.1,M,36.2,M,,*41
message1121 := $GNGSA,A,3,10,27,32,26,15,08,,,,,,,2.91,1.95,2.15,1*0D
message1122 := $GNGSA,A,3,,,,,,,,,,,,,2.91,1.95,2.15,3*02
message1123 := $GNGSA,A,3,14,11,,,,,,,,,,,2.91,1.95,2.15,4*00
message1124 := $GNGSA,A,3,,,,,,,,,,,,,2.91,1.95,2.15,5*04
message1125 := $GNGLL,3958.59749,N,03244.29332,E,072307.00,A,A*7F
message1126 := $GNRMC,072308.00,A,3958.59728,N,03244.29298,E,0.040,,260724,,,A,V*14
message1127 := $GNVTG,,T,,M,0.040,N,0.074,K,A*3A
message1128 := $GNGGA,072308.00,3958.59728,N,03244.29298,E,1,08,1.11,877.1,M,36.2,M,,*44
message1129 := $GNGSA,A,3,10,27,32,26,15,08,,,,,,,1.64,1.11,1.21,1*0C
message1130 := $GNGSA,A,3,,,,,,,,,,,,,1.64,1.11,1.21,3*03
message1131 := $GNGSA,A,3,14,11,,,,,,,,,,,1.64,1.11,1.21,4*01
message1132 := $GNGSA,A,3,,,,,,,,,,,,,1.64,1.11,1.21,5*05
message1133 := $GNGLL,3958.59728,N,03244.29298,E,072308.00,A,A*76
message1134 := $GNRMC,072309.00,A,3958.59698,N,03244.29246,E,0.033,,260724,,,A,V*18
message1135 := $GNVTG,,T,,M,0.033,N,0.062,K,A*39
message1136 := $GNGGA,072309.00,3958.59698,N,03244.29246,E,1,09,1.30,877.2,M,36.2,M,,*4D
message1137 := $GNGSA,A,3,10,27,32,26,15,08,,,,,,,1.96,1.30,1.47,1*02
message1138 := $GNGSA,A,3,,,,,,,,,,,,,1.96,1.30,1.47,3*0D
message1139 := $GNGSA,A,3,14,12,11,,,,,,,,,,1.96,1.30,1.47,4*0C
message1140 := $GNGSA,A,3,,,,,,,,,,,,,1.96,1.30,1.47,5*0B
message1141 := $GNGLL,3958.59698,N,03244.29246,E,072309.00,A,A*7E
message1142 := $GNRMC,072310.00,A,3958.59675,N,03244.29207,E,0.034,,260724,,,A,V*11
message1143 := $GNVTG,,T,,M,0.034,N,0.063,K,A*3F
message1144 := $GNGGA,072310.00,3958.59675,N,03244.29207,E,1,09,0.98,877.3,M,36.2,M,,*41
message1145 := $GNGSA,A,3,10,27,32,26,15,08,,,,,,,1.61,0.98,1.28,1*00
message1146 := $GNGSA,A,3,,,,,,,,,,,,,1.61,0.98,1.28,3*0F
message1147 := $GNGSA,A,3,14,12,11,,,,,,,,,,1.61,0.98,1.28,4*0E
message1148 := $GNGSA,A,3,,,,,,,,,,,,,1.61,0.98,1.28,5*09
message1149 := $GPGSV,3,1,12,01,,,34,08,32,312,35,10,81,209,33,15,10,039,26,1*54
message1150 := $GPGSV,3,2,12,16,,,28,18,,,33,23,,,25,26,15,202,26,1*50
message1151 := $GPGSV,3,3,12,27,67,304,35,32,21,156,34,36,44,182,39,49,36,219,32,1*62
message1152 := $GAGSV,1,1,01,14,47,301,30,7*45
message1153 := $GBGSV,2,1,08,11,74,051,31,12,25,107,29,14,40,183,31,21,,,26,1*4F
message1154 := $GBGSV,2,2,08,33,,,27,42,,,30,43,,,37,50,,,34,1*7F
message1155 := $GQGSV,1,1,00,0*64
message1156 := $GNGLL,3958.59675,N,03244.29207,E,072310.00,A,A*70
message1157 := $GNRMC,072311.00,A,3958.59632,N,03244.29126,E,0.054,,260724,,,A,V*15
message1158 := $GNVTG,,T,,M,0.054,N,0.099,K,A*3C
message1159 := $GNGGA,072311.00,3958.59632,N,03244.29126,E,1,09,1.15,877.6,M,36.2,M,,*42
message1160 := $GNGSA,A,3,10,27,32,26,15,08,,,,,,,1.86,1.15,1.47,1*04
message1161 := $GNGSA,A,3,,,,,,,,,,,,,1.86,1.15,1.47,3*0B
message1162 := $GNGSA,A,3,14,12,11,,,,,,,,,,1.86,1.15,1.47,4*0A
message1163 := $GNGSA,A,3,,,,,,,,,,,,,1.86,1.15,1.47,5*0D
message1164 := $GNGLL,3958.59632,N,03244.29126,E,072311.00,A,A*72
message1165 := $GNRMC,072312.00,A,3958.59593,N,03244.29063,E,0.218,,260724,,,A,V*14
message1166 := $GNVTG,,T,,M,0.218,N,0.404,K,A*36
message1167 := $GNGGA,072312.00,3958.59593,N,03244.29063,E,1,09,1.30,878.0,M,36.2,M,,*47
message1168 := $GNGSA,A,3,10,27,32,26,15,08,,,,,,,1.96,1.30,1.47,1*02
message1169 := $GNGSA,A,3,,,,,,,,,,,,,1.96,1.30,1.47,3*0D
message1170 := $GNGSA,A,3,14,12,11,,,,,,,,,,1.96,1.30,1.47,4*0C
message1171 := $GNGSA,A,3,,,,,,,,,,,,,1.96,1.30,1.47,5*0B
message1172 := $GNGLL,3958.59593,N,03244.29063,E,072312.00,A,A*79
message1173 := $GNRMC,072313.00,A,3958.59538,N,03244.28966,E,0.071,,260724,,,A,V*14
message1174 := $GNVTG,,T,,M,0.071,N,0.132,K,A*3B
message1175 := $GNGGA,072313.00,3958.59538,N,03244.28966,E,1,09,0.98,878.7,M,36.2,M,,*4E
message1176 := $GNGSA,A,3,10,27,32,26,15,08,,,,,,,1.61,0.98,1.28,1*00
message1177 := $GNGSA,A,3,,,,,,,,,,,,,1.61,0.98,1.28,3*0F
message1178 := $GNGSA,A,3,14,12,11,,,,,,,,,,1.61,0.98,1.28,4*0E
message1179 := $GNGSA,A,3,,,,,,,,,,,,,1.61,0.98,1.28,5*09
message1180 := $GNGLL,3958.59538,N,03244.28966,E,072313.00,A,A*74
message1181 := $GNRMC,072314.00,A,3958.59518,N,03244.28928,E,0.242,,260724,,,A,V*19
message1182 := $GNVTG,,T,,M,0.242,N,0.448,K,A*31
message1183 := $GNGGA,072314.00,3958.59518,N,03244.28928,E,1,09,1.42,878.7,M,36.2,M,,*47
message1184 := $GNGSA,A,3,10,27,32,26,15,08,,,,,,,2.24,1.42,1.74,1*0D
message1185 := $GNGSA,A,3,,,,,,,,,,,,,2.24,1.42,1.74,3*02
message1186 := $GNGSA,A,3,14,12,11,,,,,,,,,,2.24,1.42,1.74,4*03
message1187 := $GNGSA,A,3,,,,,,,,,,,,,2.24,1.42,1.74,5*04
message1188 := $GNGLL,3958.59518,N,03244.28928,E,072314.00,A,A*7B
message1189 := $GNRMC,072315.00,A,3958.59491,N,03244.28855,E,0.044,,260724,,,A,V*17
message1190 := $GNVTG,,T,,M,0.044,N,0.081,K,A*34
message1191 := $GNGGA,072315.00,3958.59491,N,03244.28855,E,1,11,1.12,879.2,M,36.2,M,,*45
message1192 := $GNGSA,A,3,10,27,32,26,15,08,,,,,,,1.75,1.12,1.35,1*0A
message1193 := $GNGSA,A,3,,,,,,,,,,,,,1.75,1.12,1.35,3*05
message1194 := $GNGSA,A,3,14,42,12,11,43,,,,,,,,1.75,1.12,1.35,4*05
message1195 := $GNGSA,A,3,,,,,,,,,,,,,1.75,1.12,1.35,5*03
message1196 := $GPGSV,3,1,12,01,,,33,08,32,312,35,10,81,209,34,15,10,039,25,1*57
message1197 := $GPGSV,3,2,12,16,,,28,18,,,29,23,,,29,26,15,202,21,1*50
message1198 := $GPGSV,3,3,12,27,67,304,34,32,21,156,34,36,44,182,39,49,36,219,29,1*69
message1199 := $GAGSV,1,1,01,14,47,301,29,7*4D
message1200 := $GBGSV,2,1,08,11,74,051,29,12,25,107,28,14,40,183,28,21,,,27,1*4E
message1201 := $GBGSV,2,2,08,33,,,35,42,61,150,32,43,69,327,37,50,,,34,1*74
message1202 := $GQGSV,1,1,00,0*64
message1203 := $GNGLL,3958.59491,N,03244.28855,E,072315.00,A,A*71
message1204 := $GNRMC,072316.00,A,3958.59477,N,03244.28815,E,0.050,,260724,,,A,V*1D
message1205 := $GNVTG,,T,,M,0.050,N,0.093,K,A*32
message1206 := $GNGGA,072316.00,3958.59477,N,03244.28815,E,1,11,1.26,879.5,M,36.2,M,,*4A
message1207 := $GNGSA,A,3,10,27,32,26,15,08,,,,,,,1.89,1.26,1.41,1*0D
message1208 := $GNGSA,A,3,,,,,,,,,,,,,1.89,1.26,1.41,3*02
message1209 := $GNGSA,A,3,14,42,12,11,43,,,,,,,,1.89,1.26,1.41,4*02
message1210 := $GNGSA,A,3,,,,,,,,,,,,,1.89,1.26,1.41,5*04
message1211 := $GNGLL,3958.59477,N,03244.28815,E,072316.00,A,A*7E
message1212 := $GNRMC,072317.00,A,3958.59462,N,03244.28777,E,0.262,202.19,260724,,,A,V*06
message1213 := $GNVTG,202.19,T,,M,0.262,N,0.486,K,A*27
message1214 := $GNGGA,072317.00,3958.59462,N,03244.28777,E,1,11,1.12,879.7,M,36.2,M,,*41
message1215 := $GNGSA,A,3,10,27,32,26,15,08,,,,,,,1.75,1.12,1.35,1*0A
message1216 := $GNGSA,A,3,,,,,,,,,,,,,1.75,1.12,1.35,3*05
message1217 := $GNGSA,A,3,14,42,12,11,43,,,,,,,,1.75,1.12,1.35,4*05
message1218 := $GNGSA,A,3,,,,,,,,,,,,,1.75,1.12,1.35,5*03
message1219 := $GNGLL,3958.59462,N,03244.28777,E,072317.00,A,A*70
message1220 := $GNRMC,072318.00,A,3958.59448,N,03244.28742,E,0.115,,260724,,,A,V*12
message1221 := $GNVTG,,T,,M,0.115,N,0.214,K,A*3F
message1222 := $GNGGA,072318.00,3958.59448,N,03244.28742,E,1,11,1.12,879.9,M,36.2,M,,*4E
message1223 := $GNGSA,A,3,10,27,32,26,15,08,,,,,,,1.75,1.12,1.35,1*0A
message1224 := $GNGSA,A,3,,,,,,,,,,,,,1.75,1.12,1.35,3*05
message1225 := $GNGSA,A,3,14,42,12,11,43,,,,,,,,1.75,1.12,1.35,4*05
message1226 := $GNGSA,A,3,,,,,,,,,,,,,1.75,1.12,1.35,5*03
message1227 := $GNGLL,3958.59448,N,03244.28742,E,072318.00,A,A*71
message1228 := $GNRMC,072319.00,A,3958.59436,N,03244.28702,E,0.107,,260724,,,A,V*1D
message1229 := $GNVTG,,T,,M,0.107,N,0.199,K,A*3A
message1230 := $GNGGA,072319.00,3958.59436,N,03244.28702,E,1,11,1.13,880.2,M,36.2,M,,*4E
message1231 := $GNGSA,A,3,10,27,32,26,15,08,,,,,,,1.77,1.13,1.37,1*0B
message1232 := $GNGSA,A,3,,,,,,,,,,,,,1.77,1.13,1.37,3*04
message1233 := $GNGSA,A,3,14,42,12,11,43,,,,,,,,1.77,1.13,1.37,4*04
message1234 := $GNGSA,A,3,,,,,,,,,,,,,1.77,1.13,1.37,5*02
message1235 := $GNGLL,3958.59436,N,03244.28702,E,072319.00,A,A*7D
message1236 := $GNRMC,072320.00,A,3958.59422,N,03244.28667,E,0.070,,260724,,,A,V*11
message1237 := $GNVTG,,T,,M,0.070,N,0.129,K,A*30
message1238 := $GNGGA,072320.00,3958.59422,N,03244.28667,E,1,11,1.12,880.4,M,36.2,M,,*44
message1239 := $GNGSA,A,3,10,27,32,26,15,08,,,,,,,1.75,1.12,1.35,1*0A
message1240 := $GNGSA,A,3,,,,,,,,,,,,,1.75,1.12,1.35,3*05
message1241 := $GNGSA,A,3,14,42,12,11,43,,,,,,,,1.75,1.12,1.35,4*05
message1242 := $GNGSA,A,3,,,,,,,,,,,,,1.75,1.12,1.35,5*03
message1243 := $GPGSV,3,1,12,01,,,33,08,32,312,34,10,81,209,33,15,10,039,26,1*52
message1244 := $GPGSV,3,2,12,16,,,30,18,,,29,23,,,22,26,15,202,21,1*52
message1245 := $GPGSV,3,3,12,27,67,304,36,32,21,156,33,36,44,182,38,49,36,219,33,1*66
message1246 := $GAGSV,1,1,01,14,47,301,30,7*45
message1247 := $GBGSV,2,1,08,11,74,051,29,12,25,107,31,14,40,183,31,21,,,28,1*41
message1248 := $GBGSV,2,2,08,33,,,33,42,61,150,35,43,69,327,40,50,,,35,1*74
message1249 := $GQGSV,1,1,00,0*64
message1250 := $GNGLL,3958.59422,N,03244.28667,E,072320.00,A,A*70
message1251 := $GNRMC,072321.00,A,3958.59413,N,03244.28642,E,0.093,,260724,,,A,V*18
message1252 := $GNVTG,,T,,M,0.093,N,0.172,K,A*33
message1253 := $GNGGA,072321.00,3958.59413,N,03244.28642,E,1,11,0.93,880.4,M,36.2,M,,*48
message1254 := $GNGSA,A,3,10,27,32,26,15,08,,,,,,,1.43,0.93,1.09,1*08
message1255 := $GNGSA,A,3,,,,,,,,,,,,,1.43,0.93,1.09,3*07
message1256 := $GNGSA,A,3,14,42,12,11,43,,,,,,,,1.43,0.93,1.09,4*07
message1257 := $GNGSA,A,3,,,,,,,,,,,,,1.43,0.93,1.09,5*01
message1258 := $GNGLL,3958.59413,N,03244.28642,E,072321.00,A,A*74
message1259 := $GNRMC,072322.00,A,3958.59411,N,03244.28627,E,0.083,,260724,,,A,V*1B
message1260 := $GNVTG,,T,,M,0.083,N,0.154,K,A*36
message1261 := $GNGGA,072322.00,3958.59411,N,03244.28627,E,1,11,0.94,880.4,M,36.2,M,,*4D
message1262 := $GNGSA,A,3,10,27,32,26,15,08,,,,,,,1.47,0.94,1.12,1*01
message1263 := $GNGSA,A,3,,,,,,,,,,,,,1.47,0.94,1.12,3*0E
message1264 := $GNGSA,A,3,14,42,12,11,43,,,,,,,,1.47,0.94,1.12,4*0E
message1265 := $GNGSA,A,3,,,,,,,,,,,,,1.47,0.94,1.12,5*08
message1266 := $GNGLL,3958.59411,N,03244.28627,E,072322.00,A,A*76
message1267 := $GNRMC,072323.00,A,3958.59401,N,03244.28605,E,0.039,,260724,,,A,V*1A
message1268 := $GNVTG,,T,,M,0.039,N,0.073,K,A*33
message1269 := $GNGGA,072323.00,3958.59401,N,03244.28605,E,1,11,0.93,880.6,M,36.2,M,,*48
message1270 := $GNGSA,A,3,10,27,32,26,15,08,,,,,,,1.43,0.93,1.09,1*08
message1271 := $GNGSA,A,3,,,,,,,,,,,,,1.43,0.93,1.09,3*07
message1272 := $GNGSA,A,3,14,42,12,11,43,,,,,,,,1.43,0.93,1.09,4*07
message1273 := $GNGSA,A,3,,,,,,,,,,,,,1.43,0.93,1.09,5*01
message1274 := $GNGLL,3958.59401,N,03244.28605,E,072323.00,A,A*76
message1275 := $GNRMC,072324.00,A,3958.59400,N,03244.28602,E,0.077,,260724,,,A,V*11
message1276 := $GNVTG,,T,,M,0.077,N,0.143,K,A*3B
message1277 := $GNGGA,072324.00,3958.59400,N,03244.28602,E,1,11,1.06,880.5,M,36.2,M,,*47
message1278 := $GNGSA,A,3,10,27,32,26,15,08,,,,,,,1.52,1.06,1.10,1*0D
message1279 := $GNGSA,A,3,,,,,,,,,,,,,1.52,1.06,1.10,3*02
message1280 := $GNGSA,A,3,14,42,12,11,43,,,,,,,,1.52,1.06,1.10,4*02
message1281 := $GNGSA,A,3,,,,,,,,,,,,,1.52,1.06,1.10,5*04
message1282 := $GNGLL,3958.59400,N,03244.28602,E,072324.00,A,A*77
message1283 := $GNRMC,072325.00,A,3958.59398,N,03244.28578,E,0.054,,260724,,,A,V*19
message1284 := $GNVTG,,T,,M,0.054,N,0.099,K,A*3C
message1285 := $GNGGA,072325.00,3958.59398,N,03244.28578,E,1,11,0.93,880.6,M,36.2,M,,*40
message1286 := $GNGSA,A,3,10,27,32,26,15,08,,,,,,,1.43,0.93,1.09,1*08
message1287 := $GNGSA,A,3,,,,,,,,,,,,,1.43,0.93,1.09,3*07
message1288 := $GNGSA,A,3,14,42,12,11,43,,,,,,,,1.43,0.93,1.09,4*07
message1289 := $GNGSA,A,3,,,,,,,,,,,,,1.43,0.93,1.09,5*01
message1290 := $GPGSV,3,1,12,01,,,33,08,32,312,35,10,81,209,35,15,10,039,25,1*56
message1291 := $GPGSV,3,2,12,16,,,27,18,,,28,23,,,29,26,15,202,20,1*5F
message1292 := $GPGSV,3,3,12,27,67,304,35,32,21,156,34,36,43,194,39,49,36,219,32,1*62
message1293 := $GAGSV,1,1,01,14,48,301,30,7*4A
message1294 := $GBGSV,2,1,08,11,74,051,31,12,25,107,26,14,40,183,29,21,,,25,1*4A
message1295 := $GBGSV,2,2,08,33,,,32,42,61,150,33,43,69,327,37,50,,,34,1*72
message1296 := $GQGSV,1,1,00,0*64
message1297 := $GNGLL,3958.59398,N,03244.28578,E,072325.00,A,A*7E
message1298 := $GNRMC,072326.00,A,3958.59395,N,03244.28553,E,0.093,,260724,,,A,V*15
message1299 := $GNVTG,,T,,M,0.093,N,0.173,K,A*32
message1300 := $GNGGA,072326.00,3958.59395,N,03244.28553,E,1,11,0.93,880.8,M,36.2,M,,*49
message1301 := $GNGSA,A,3,10,27,32,26,15,08,,,,,,,1.43,0.93,1.09,1*08
message1302 := $GNGSA,A,3,,,,,,,,,,,,,1.43,0.93,1.09,3*07
message1303 := $GNGSA,A,3,14,42,12,11,43,,,,,,,,1.43,0.93,1.09,4*07
message1304 := $GNGSA,A,3,,,,,,,,,,,,,1.43,0.93,1.09,5*01
message1305 := $GNGLL,3958.59395,N,03244.28553,E,072326.00,A,A*79
message1306 := $GNRMC,072327.00,A,3958.59398,N,03244.28540,E,0.011,,260724,,,A,V*11
message1307 := $GNVTG,,T,,M,0.011,N,0.020,K,A*3F
message1308 := $GNGGA,072327.00,3958.59398,N,03244.28540,E,1,11,0.93,881.0,M,36.2,M,,*4E
message1309 := $GNGSA,A,3,10,27,32,26,15,08,,,,,,,1.43,0.93,1.09,1*08
message1310 := $GNGSA,A,3,,,,,,,,,,,,,1.43,0.93,1.09,3*07
message1311 := $GNGSA,A,3,14,42,12,11,43,,,,,,,,1.43,0.93,1.09,4*07
message1312 := $GNGSA,A,3,,,,,,,,,,,,,1.43,0.93,1.09,5*01
message1313 := $GNGLL,3958.59398,N,03244.28540,E,072327.00,A,A*77
message1314 := $GNRMC,072328.00,A,3958.59399,N,03244.28526,E,0.081,,260724,,,A,V*16
message1315 := $GNVTG,,T,,M,0.081,N,0.150,K,A*30
message1316 := $GNGGA,072328.00,3958.59399,N,03244.28526,E,1,11,0.93,881.1,M,36.2,M,,*41
message1317 := $GNGSA,A,3,10,27,32,26,15,08,,,,,,,1.43,0.93,1.09,1*08
message1318 := $GNGSA,A,3,,,,,,,,,,,,,1.43,0.93,1.09,3*07
message1319 := $GNGSA,A,3,14,42,12,11,43,,,,,,,,1.43,0.93,1.09,4*07
message1320 := $GNGSA,A,3,,,,,,,,,,,,,1.43,0.93,1.09,5*01
message1321 := $GNGLL,3958.59399,N,03244.28526,E,072328.00,A,A*79
message1322 := $GNRMC,072329.00,A,3958.59402,N,03244.28523,E,0.113,,260724,,,A,V*1D
message1323 := $GNVTG,,T,,M,0.113,N,0.209,K,A*35
message1324 := $GNGGA,072329.00,3958.59402,N,03244.28523,E,1,10,1.25,881.0,M,36.2,M,,*4C
message1325 := $GNGSA,A,3,10,27,32,15,08,,,,,,,,1.83,1.25,1.35,1*03
message1326 := $GNGSA,A,3,,,,,,,,,,,,,1.83,1.25,1.35,3*08
message1327 := $GNGSA,A,3,14,42,12,11,43,,,,,,,,1.83,1.25,1.35,4*08
message1328 := $GNGSA,A,3,,,,,,,,,,,,,1.83,1.25,1.35,5*0E
message1329 := $GNGLL,3958.59402,N,03244.28523,E,072329.00,A,A*78
message1330 := $GNRMC,072330.00,A,3958.59404,N,03244.28509,E,0.082,,260724,,,A,V*12
message1331 := $GNVTG,,T,,M,0.082,N,0.151,K,A*32
message1332 := $GNGGA,072330.00,3958.59404,N,03244.28509,E,1,11,0.93,881.1,M,36.2,M,,*46
message1333 := $GNGSA,A,3,10,27,32,26,15,08,,,,,,,1.43,0.93,1.09,1*08
message1334 := $GNGSA,A,3,,,,,,,,,,,,,1.43,0.93,1.09,3*07
message1335 := $GNGSA,A,3,14,42,12,11,43,,,,,,,,1.43,0.93,1.09,4*07
message1336 := $GNGSA,A,3,,,,,,,,,,,,,1.43,0.93,1.09,5*01
message1337 := $GPGSV,3,1,12,01,,,31,08,32,312,34,10,81,209,34,15,10,039,26,1*57
message1338 := $GPGSV,3,2,12,16,,,28,18,,,29,23,,,28,26,15,202,11,1*52
message1339 := $GPGSV,3,3,12,27,67,304,35,32,21,156,31,36,43,194,39,49,36,219,32,1*67
message1340 := $GAGSV,1,1,01,14,48,301,31,7*4B
message1341 := $GBGSV,2,1,08,11,74,051,29,12,25,107,28,14,40,183,30,21,,,29,1*49
message1342 := $GBGSV,2,2,08,33,,,32,42,61,150,34,43,69,327,37,50,,,32,1*73
message1343 := $GQGSV,1,1,00,0*64
message1344 := $GNGLL,3958.59404,N,03244.28509,E,072330.00,A,A*7E
message1345 := $GNRMC,072331.00,A,3958.59392,N,03244.28471,E,0.050,,260724,,,A,V*1A
message1346 := $GNVTG,,T,,M,0.050,N,0.093,K,A*32
message1347 := $GNGGA,072331.00,3958.59392,N,03244.28471,E,1,12,0.86,881.1,M,36.2,M,,*46
message1348 := $GNGSA,A,3,10,27,32,26,16,15,08,,,,,,1.38,0.86,1.08,1*06
message1349 := $GNGSA,A,3,,,,,,,,,,,,,1.38,0.86,1.08,3*0E
message1350 := $GNGSA,A,3,14,42,12,11,43,,,,,,,,1.38,0.86,1.08,4*0E
message1351 := $GNGSA,A,3,,,,,,,,,,,,,1.38,0.86,1.08,5*08
message1352 := $GNGLL,3958.59392,N,03244.28471,E,072331.00,A,A*79
message1353 := $GNRMC,072332.00,A,3958.59385,N,03244.28443,E,0.062,,260724,,,A,V*1F
message1354 := $GNVTG,,T,,M,0.062,N,0.114,K,A*3D
message1355 := $GNGGA,072332.00,3958.59385,N,03244.28443,E,1,12,0.86,881.1,M,36.2,M,,*42
message1356 := $GNGSA,A,3,10,27,32,26,16,15,08,,,,,,1.38,0.86,1.08,1*06
message1357 := $GNGSA,A,3,,,,,,,,,,,,,1.38,0.86,1.08,3*0E
message1358 := $GNGSA,A,3,14,42,12,11,43,,,,,,,,1.38,0.86,1.08,4*0E
message1359 := $GNGSA,A,3,,,,,,,,,,,,,1.38,0.86,1.08,5*08
message1360 := $GNGLL,3958.59385,N,03244.28443,E,072332.00,A,A*7D
message1361 := $GNRMC,072333.00,A,3958.59378,N,03244.28420,E,0.140,,260724,,,A,V*18
message1362 := $GNVTG,,T,,M,0.140,N,0.259,K,A*36
message1363 := $GNGGA,072333.00,3958.59378,N,03244.28420,E,1,12,0.83,880.9,M,36.2,M,,*48
message1364 := $GNGSA,A,3,10,27,32,26,16,15,08,,,,,,1.33,0.83,1.03,1*03
message1365 := $GNGSA,A,3,,,,,,,,,,,,,1.33,0.83,1.03,3*0B
message1366 := $GNGSA,A,3,33,14,42,12,11,43,,,,,,,1.33,0.83,1.03,4*0B
message1367 := $GNGSA,A,3,,,,,,,,,,,,,1.33,0.83,1.03,5*0D
message1368 := $GNGLL,3958.59378,N,03244.28420,E,072333.00,A,A*7B
message1369 := $GNRMC,072334.00,A,3958.59376,N,03244.28414,E,0.028,,260724,,,A,V*19
message1370 := $GNVTG,,T,,M,0.028,N,0.052,K,A*30
message1371 := $GNGGA,072334.00,3958.59376,N,03244.28414,E,1,12,0.83,880.8,M,36.2,M,,*47
message1372 := $GNGSA,A,3,10,27,32,26,16,15,08,,,,,,1.33,0.83,1.03,1*03
message1373 := $GNGSA,A,3,,,,,,,,,,,,,1.33,0.83,1.03,3*0B
message1374 := $GNGSA,A,3,33,14,42,12,11,43,,,,,,,1.33,0.83,1.03,4*0B
message1375 := $GNGSA,A,3,,,,,,,,,,,,,1.33,0.83,1.03,5*0D
message1376 := $GNGLL,3958.59376,N,03244.28414,E,072334.00,A,A*75
message1377 := $GNRMC,072335.00,A,3958.59379,N,03244.28410,E,0.069,,260724,,,A,V*16
message1378 := $GNVTG,,T,,M,0.069,N,0.128,K,A*39
message1379 := $GNGGA,072335.00,3958.59379,N,03244.28410,E,1,12,0.87,880.9,M,36.2,M,,*48
message1380 := $GNGSA,A,3,10,27,32,26,16,15,08,,,,,,1.36,0.87,1.04,1*05
message1381 := $GNGSA,A,3,,,,,,,,,,,,,1.36,0.87,1.04,3*0D
message1382 := $GNGSA,A,3,33,14,42,12,11,43,,,,,,,1.36,0.87,1.04,4*0D
message1383 := $GNGSA,A,3,,,,,,,,,,,,,1.36,0.87,1.04,5*0B
message1384 := $GPGSV,3,1,12,01,,,34,08,32,312,28,10,81,209,33,15,10,039,25,1*5B
message1385 := $GPGSV,3,2,12,16,37,232,29,18,,,32,23,,,28,26,15,202,22,1*6E
message1386 := $GPGSV,3,3,12,27,67,304,35,32,21,156,31,36,43,194,39,49,36,219,33,1*66
message1387 := $GAGSV,1,1,01,14,48,301,32,7*48
message1388 := $GBGSV,2,1,08,11,74,051,30,12,25,107,25,14,40,183,25,21,,,33,1*43
message1389 := $GBGSV,2,2,08,33,17,197,26,42,61,150,29,43,69,327,38,50,,,32,1*4C
message1390 := $GQGSV,1,1,00,0*64
message1391 := $GNGLL,3958.59379,N,03244.28410,E,072335.00,A,A*7F
message1392 := $GNRMC,072336.00,A,3958.59380,N,03244.28403,E,0.053,,260724,,,A,V*18
message1393 := $GNVTG,,T,,M,0.053,N,0.098,K,A*3A
message1394 := $GNGGA,072336.00,3958.59380,N,03244.28403,E,1,12,0.88,881.0,M,36.2,M,,*48
message1395 := $GNGSA,A,3,10,27,32,26,16,15,08,,,,,,1.36,0.88,1.04,1*0A
message1396 := $GNGSA,A,3,,,,,,,,,,,,,1.36,0.88,1.04,3*02
message1397 := $GNGSA,A,3,33,14,42,12,11,43,,,,,,,1.36,0.88,1.04,4*02
message1398 := $GNGSA,A,3,,,,,,,,,,,,,1.36,0.88,1.04,5*04
message1399 := $GNGLL,3958.59380,N,03244.28403,E,072336.00,A,A*78
message1400 := $GNRMC,072337.00,A,3958.59389,N,03244.28411,E,0.030,,260724,,,A,V*16
message1401 := $GNVTG,,T,,M,0.030,N,0.055,K,A*3E
message1402 := $GNGGA,072337.00,3958.59389,N,03244.28411,E,1,12,0.83,881.1,M,36.2,M,,*49
message1403 := $GNGSA,A,3,10,27,32,26,16,15,08,,,,,,1.33,0.83,1.03,1*03
message1404 := $GNGSA,A,3,,,,,,,,,,,,,1.33,0.83,1.03,3*0B
message1405 := $GNGSA,A,3,33,14,42,12,11,43,,,,,,,1.33,0.83,1.03,4*0B
message1406 := $GNGSA,A,3,,,,,,,,,,,,,1.33,0.83,1.03,5*0D
message1407 := $GNGLL,3958.59389,N,03244.28411,E,072337.00,A,A*73
message1408 := $GNRMC,072338.00,A,3958.59385,N,03244.28405,E,0.058,,260724,,,A,V*1E
message1409 := $GNVTG,,T,,M,0.058,N,0.107,K,A*36
message1410 := $GNGGA,072338.00,3958.59385,N,03244.28405,E,1,12,0.83,881.1,M,36.2,M,,*4F
message1411 := $GNGSA,A,3,10,27,32,26,16,15,08,,,,,,1.33,0.83,1.03,1*03
message1412 := $GNGSA,A,3,,,,,,,,,,,,,1.33,0.83,1.03,3*0B
message1413 := $GNGSA,A,3,33,14,42,12,11,43,,,,,,,1.33,0.83,1.03,4*0B
message1414 := $GNGSA,A,3,,,,,,,,,,,,,1.33,0.83,1.03,5*0D
message1415 := $GNGLL,3958.59385,N,03244.28405,E,072338.00,A,A*75
message1416 := $GNRMC,072339.00,A,3958.59378,N,03244.28391,E,0.022,,260724,,,A,V*1A
message1417 := $GNVTG,,T,,M,0.022,N,0.040,K,A*39
message1418 := $GNGGA,072339.00,3958.59378,N,03244.28391,E,1,12,0.83,881.3,M,36.2,M,,*44
message1419 := $GNGSA,A,3,10,27,32,26,16,15,08,,,,,,1.33,0.83,1.03,1*03
message1420 := $GNGSA,A,3,,,,,,,,,,,,,1.33,0.83,1.03,3*0B
message1421 := $GNGSA,A,3,33,14,42,12,11,43,,,,,,,1.33,0.83,1.03,4*0B
message1422 := $GNGSA,A,3,,,,,,,,,,,,,1.33,0.83,1.03,5*0D
message1423 := $GNGLL,3958.59378,N,03244.28391,E,072339.00,A,A*7C
message1424 := $GNRMC,072340.00,A,3958.59372,N,03244.28378,E,0.018,,260724,,,A,V*10
message1425 := $GNVTG,,T,,M,0.018,N,0.033,K,A*34
message1426 := $GNGGA,072340.00,3958.59372,N,03244.28378,E,1,12,0.83,881.5,M,36.2,M,,*41
message1427 := $GNGSA,A,3,10,27,32,26,16,15,08,,,,,,1.33,0.83,1.03,1*03
message1428 := $GNGSA,A,3,,,,,,,,,,,,,1.33,0.83,1.03,3*0B
message1429 := $GNGSA,A,3,33,14,42,12,11,43,,,,,,,1.33,0.83,1.03,4*0B
message1430 := $GNGSA,A,3,,,,,,,,,,,,,1.33,0.83,1.03,5*0D
message1431 := $GPGSV,3,1,11,01,,,32,08,32,312,34,10,81,209,33,15,10,039,28,1*5E
message1432 := $GPGSV,3,2,11,16,37,232,29,18,,,20,23,,,29,26,15,202,20,1*6D
message1433 := $GPGSV,3,3,11,27,67,304,35,32,21,156,33,36,43,194,39,1*55
message1434 := $GPGSV,1,1,01,49,36,219,,0*56
message1435 := $GAGSV,1,1,01,14,48,301,30,7*4A
message1436 := $GBGSV,2,1,08,11,74,051,30,12,25,107,30,14,40,183,29,21,,,28,1*41
message1437 := $GBGSV,2,2,08,33,17,197,32,42,61,150,34,43,69,327,37,50,,,32,1*4A
message1438 := $GQGSV,1,1,00,0*64
message1439 := $GNGLL,3958.59372,N,03244.28378,E,072340.00,A,A*7F
message1440 := $GNRMC,072341.00,A,3958.59366,N,03244.28368,E,0.034,,260724,,,A,V*1B
message1441 := $GNVTG,,T,,M,0.034,N,0.064,K,A*38
message1442 := $GNGGA,072341.00,3958.59366,N,03244.28368,E,1,12,0.83,881.7,M,36.2,M,,*46
message1443 := $GNGSA,A,3,10,27,32,26,16,15,08,,,,,,1.33,0.83,1.03,1*03
message1444 := $GNGSA,A,3,,,,,,,,,,,,,1.33,0.83,1.03,3*0B
message1445 := $GNGSA,A,3,33,14,42,12,11,43,,,,,,,1.33,0.83,1.03,4*0B
message1446 := $GNGSA,A,3,,,,,,,,,,,,,1.33,0.83,1.03,5*0D
message1447 := $GNGLL,3958.59366,N,03244.28368,E,072341.00,A,A*7A
message1448 := $GNRMC,072342.00,A,3958.59358,N,03244.28354,E,0.029,,260724,,,A,V*16
message1449 := $GNVTG,,T,,M,0.029,N,0.053,K,A*30
message1450 := $GNGGA,072342.00,3958.59358,N,03244.28354,E,1,12,0.83,881.8,M,36.2,M,,*48
message1451 := $GNGSA,A,3,10,27,32,26,16,15,08,,,,,,1.33,0.83,1.03,1*03
message1452 := $GNGSA,A,3,,,,,,,,,,,,,1.33,0.83,1.03,3*0B
message1453 := $GNGSA,A,3,33,14,42,12,11,43,,,,,,,1.33,0.83,1.03,4*0B
message1454 := $GNGSA,A,3,,,,,,,,,,,,,1.33,0.83,1.03,5*0D
message1455 := $GNGLL,3958.59358,N,03244.28354,E,072342.00,A,A*7B
message1456 := $GNRMC,072343.00,A,3958.59354,N,03244.28347,E,0.002,,260724,,,A,V*10
message1457 := $GNVTG,,T,,M,0.002,N,0.004,K,A*3B
message1458 := $GNGGA,072343.00,3958.59354,N,03244.28347,E,1,12,0.88,882.1,M,36.2,M,,*46
message1459 := $GNGSA,A,3,10,27,32,26,16,15,08,,,,,,1.36,0.88,1.04,1*0A
message1460 := $GNGSA,A,3,,,,,,,,,,,,,1.36,0.88,1.04,3*02
message1461 := $GNGSA,A,3,33,14,42,12,11,43,,,,,,,1.36,0.88,1.04,4*02
message1462 := $GNGSA,A,3,,,,,,,,,,,,,1.36,0.88,1.04,5*04
message1463 := $GNGLL,3958.59354,N,03244.28347,E,072343.00,A,A*74
message1464 := $GNRMC,072344.00,A,3958.59347,N,03244.28335,E,0.042,,260724,,,A,V*14
message1465 := $GNVTG,,T,,M,0.042,N,0.077,K,A*3B
message1466 := $GNGGA,072344.00,3958.59347,N,03244.28335,E,1,12,0.88,882.4,M,36.2,M,,*43
message1467 := $GNGSA,A,3,10,27,32,26,16,15,08,,,,,,1.36,0.88,1.04,1*0A
message1468 := $GNGSA,A,3,,,,,,,,,,,,,1.36,0.88,1.04,3*02
message1469 := $GNGSA,A,3,33,14,42,12,11,43,,,,,,,1.36,0.88,1.04,4*02
message1470 := $GNGSA,A,3,,,,,,,,,,,,,1.36,0.88,1.04,5*04
message1471 := $GNGLL,3958.59347,N,03244.28335,E,072344.00,A,A*74
message1472 := $GNRMC,072345.00,A,3958.59341,N,03244.28324,E,0.039,,260724,,,A,V*1F
message1473 := $GNVTG,,T,,M,0.039,N,0.072,K,A*32
message1474 := $GNGGA,072345.00,3958.59341,N,03244.28324,E,1,12,0.88,882.8,M,36.2,M,,*48
message1475 := $GNGSA,A,3,10,27,32,26,16,15,08,,,,,,1.36,0.88,1.04,1*0A
message1476 := $GNGSA,A,3,,,,,,,,,,,,,1.36,0.88,1.04,3*02
message1477 := $GNGSA,A,3,33,14,42,12,11,43,,,,,,,1.36,0.88,1.04,4*02
message1478 := $GNGSA,A,3,,,,,,,,,,,,,1.36,0.88,1.04,5*04
message1479 := $GPGSV,3,1,11,01,,,35,08,32,312,34,10,81,209,33,15,10,039,27,1*56
message1480 := $GPGSV,3,2,11,16,37,232,26,18,,,29,23,,,25,26,15,202,20,1*67
message1481 := $GPGSV,3,3,11,27,68,304,36,32,22,156,35,36,43,194,39,1*5C
message1482 := $GPGSV,1,1,01,49,36,219,,0*56
message1483 := $GAGSV,1,1,01,14,48,301,31,7*4B
message1484 := $GBGSV,2,1,08,11,74,051,29,12,25,107,27,14,40,183,28,21,,,29,1*4F
message1485 := $GBGSV,2,2,08,33,17,197,31,42,61,150,33,43,69,327,37,50,,,34,1*48
message1486 := $GQGSV,1,1,00,0*64
message1487 := $GNGLL,3958.59341,N,03244.28324,E,072345.00,A,A*73
message1488 := $GNRMC,072346.00,A,3958.59334,N,03244.28312,E,0.018,,260724,,,A,V*18
message1489 := $GNVTG,,T,,M,0.018,N,0.033,K,A*34
message1490 := $GNGGA,072346.00,3958.59334,N,03244.28312,E,1,12,0.88,883.0,M,36.2,M,,*45
message1491 := $GNGSA,A,3,10,27,32,26,16,15,08,,,,,,1.36,0.88,1.04,1*0A
message1492 := $GNGSA,A,3,,,,,,,,,,,,,1.36,0.88,1.04,3*02
message1493 := $GNGSA,A,3,33,14,42,12,11,43,,,,,,,1.36,0.88,1.04,4*02
message1494 := $GNGSA,A,3,,,,,,,,,,,,,1.36,0.88,1.04,5*04
message1495 := $GNGLL,3958.59334,N,03244.28312,E,072346.00,A,A*77
message1496 := $GNRMC,072347.00,A,3958.59330,N,03244.28306,E,0.071,,260724,,,A,V*17
message1497 := $GNVTG,,T,,M,0.071,N,0.132,K,A*3B
message1498 := $GNGGA,072347.00,3958.59330,N,03244.28306,E,1,12,1.02,883.2,M,36.2,M,,*44
message1499 := $GNGSA,A,3,10,27,32,26,16,15,08,,,,,,1.45,1.02,1.04,1*0D
message1500 := $GNGSA,A,3,,,,,,,,,,,,,1.45,1.02,1.04,3*05
message1501 := $GNGSA,A,3,33,14,42,12,11,43,,,,,,,1.45,1.02,1.04,4*05
message1 := $GNVTG,,T,,M,0.163,N,0.301,K,A*3B
message2 := $GNGGA,072433.00,3958.59234,N,03244.28385,E,1,12,1.08,890.4,M,36.2,M,,*40
message3 := $GNGSA,A,3,08,10,16,26,32,27,,,,,,,1.81,1.08,1.46,1*0D
message4 := $GNGSA,A,3,,,,,,,,,,,,,1.81,1.08,1.46,3*01
message5 := $GNGSA,A,3,11,12,14,33,42,43,,,,,,,1.81,1.08,1.46,4*01
message6 := $GNGSA,A,3,,,,,,,,,,,,,1.81,1.08,1.46,5*07
message7 := $GNGLL,3958.59234,N,03244.28385,E,072433.00,A,A*7D
message8 := $GNRMC,072434.00,A,3958.59245,N,03244.28408,E,0.059,,260724,,,A,V*14
message9 := $GNVTG,,T,,M,0.059,N,0.110,K,A*31
message10 := $GNGGA,072434.00,3958.59245,N,03244.28408,E,1,12,1.08,890.3,M,36.2,M,,*44
message11 := $GNGSA,A,3,08,10,16,26,32,27,,,,,,,1.81,1.08,1.46,1*0D
message12 := $GNGSA,A,3,,,,,,,,,,,,,1.81,1.08,1.46,3*01
message13 := $GNGSA,A,3,11,12,14,33,42,43,,,,,,,1.81,1.08,1.46,4*01
message14 := $GNGSA,A,3,,,,,,,,,,,,,1.81,1.08,1.46,5*07
message15 := $GNGLL,3958.59245,N,03244.28408,E,072434.00,A,A*7E
message16 := $GNRMC,072435.00,A,3958.59256,N,03244.28434,E,0.091,,260724,,,A,V*1C
message17 := $GNVTG,,T,,M,0.091,N,0.169,K,A*3B
message18 := $GNGGA,072435.00,3958.59256,N,03244.28434,E,1,12,1.08,890.2,M,36.2,M,,*49
message19 := $GNGSA,A,3,08,10,16,26,32,27,,,,,,,1.81,1.08,1.46,1*0D
message20 := $GNGSA,A,3,,,,,,,,,,,,,1.81,1.08,1.46,3*01
message21 := $GNGSA,A,3,11,12,14,33,42,43,,,,,,,1.81,1.08,1.46,4*01
message22 := $GNGSA,A,3,,,,,,,,,,,,,1.81,1.08,1.46,5*07
message23 := $GNGLL,3958.59256,N,03244.28434,E,072435.00,A,A*72
message24 := $GNRMC,072436.00,A,3958.59269,N,03244.28455,E,0.078,,260724,,,A,V*13
message25 := $GNVTG,,T,,M,0.078,N,0.144,K,A*33
message26 := $GNGGA,072436.00,3958.59269,N,03244.28455,E,1,12,1.62,890.1,M,36.2,M,,*4E
message27 := $GNGSA,A,3,08,10,16,26,32,27,,,,,,,2.43,1.62,1.82,1*04
message28 := $GNGSA,A,3,,,,,,,,,,,,,2.43,1.62,1.82,3*08
message29 := $GNGSA,A,3,11,12,14,33,42,43,,,,,,,2.43,1.62,1.82,4*08
message30 := $GNGSA,A,3,,,,,,,,,,,,,2.43,1.62,1.82,5*0E
message31 := $GNGLL,3958.59269,N,03244.28455,E,072436.00,A,A*7A
message32 := $GNRMC,072437.00,A,3958.59280,N,03244.28476,E,0.044,,260724,,,A,V*1B
message33 := $GNVTG,,T,,M,0.044,N,0.082,K,A*37
message34 := $GNGGA,072437.00,3958.59280,N,03244.28476,E,1,12,1.08,890.1,M,36.2,M,,*45
message35 := $GNGSA,A,3,08,10,16,26,32,27,,,,,,,1.81,1.08,1.46,1*0D
message36 := $GNGSA,A,3,,,,,,,,,,,,,1.81,1.08,1.46,3*01
message37 := $GNGSA,A,3,11,12,14,33,42,43,,,,,,,1.81,1.08,1.46,4*01
message38 := $GNGSA,A,3,,,,,,,,,,,,,1.81,1.08,1.46,5*07
message39 := $GPGSV,2,1,08,08,33,312,32,10,82,210,40,15,10,039,06,16,37,232,32,1*62
message40 := $GPGSV,2,2,08,23,,,30,26,15,202,16,27,68,304,44,32,22,156,23,1*57
message41 := $GPGSV,1,1,02,36,43,194,,49,36,219,,0*6B
message42 := $GAGSV,1,1,01,14,48,301,34,7*4E
message43 := $GBGSV,2,1,06,11,74,052,24,12,25,107,26,14,41,183,31,33,18,197,30,1*7A
message44 := $GBGSV,2,2,06,42,61,150,32,43,69,327,37,1*7E
message45 := $GQGSV,1,1,00,0*64
message46 := $GNGLL,3958.59280,N,03244.28476,E,072437.00,A,A*7D
message47 := $GNRMC,072438.00,A,3958.59289,N,03244.28494,E,0.060,,260724,,,A,V*17
message48 := $GNVTG,,T,,M,0.060,N,0.110,K,A*3B
message49 := $GNGGA,072438.00,3958.59289,N,03244.28494,E,1,12,1.06,889.8,M,36.2,M,,*40
message50 := $GNGSA,A,3,08,10,16,26,32,27,,,,,,,1.78,1.06,1.43,1*00
message51 := $GNGSA,A,3,,,,,,,,,,,,,1.78,1.06,1.43,3*0C
message52 := $GNGSA,A,3,11,12,14,33,42,43,,,,,,,1.78,1.06,1.43,4*0C
message53 := $GNGSA,A,3,,,,,,,,,,,,,1.78,1.06,1.43,5*0A
message54 := $GNGLL,3958.59289,N,03244.28494,E,072438.00,A,A*77
message55 := $GNRMC,072439.00,A,3958.59297,N,03244.28511,E,0.071,,260724,,,A,V*15
message56 := $GNVTG,,T,,M,0.071,N,0.131,K,A*38
message57 := $GNGGA,072439.00,3958.59297,N,03244.28511,E,1,12,1.06,889.7,M,36.2,M,,*4D
message58 := $GNGSA,A,3,08,10,16,26,32,27,,,,,,,1.78,1.06,1.43,1*00
message59 := $GNGSA,A,3,,,,,,,,,,,,,1.78,1.06,1.43,3*0C
message60 := $GNGSA,A,3,11,12,14,33,42,43,,,,,,,1.78,1.06,1.43,4*0C
message61 := $GNGSA,A,3,,,,,,,,,,,,,1.78,1.06,1.43,5*0A
message62 := $GNGLL,3958.59297,N,03244.28511,E,072439.00,A,A*75
message63 := $GNRMC,072440.00,A,3958.59302,N,03244.28514,E,0.219,,260724,,,A,V*1F
message64 := $GNVTG,,T,,M,0.219,N,0.405,K,A*36
message65 := $GNGGA,072440.00,3958.59302,N,03244.28514,E,1,12,0.88,889.8,M,36.2,M,,*43
message66 := $GNGSA,A,3,08,10,15,16,26,32,27,,,,,,1.46,0.88,1.16,1*0E
message67 := $GNGSA,A,3,,,,,,,,,,,,,1.46,0.88,1.16,3*06
message68 := $GNGSA,A,3,11,12,14,33,42,43,,,,,,,1.46,0.88,1.16,4*06
message69 := $GNGSA,A,3,,,,,,,,,,,,,1.46,0.88,1.16,5*00
message70 := $GNGLL,3958.59302,N,03244.28514,E,072440.00,A,A*73
message71 := $GNRMC,072441.00,A,3958.59305,N,03244.28511,E,0.069,,260724,,,A,V*19
message72 := $GNVTG,,T,,M,0.069,N,0.127,K,A*36
message73 := $GNGGA,072441.00,3958.59305,N,03244.28511,E,1,12,0.88,890.0,M,36.2,M,,*40
message74 := $GNGSA,A,3,08,10,15,16,26,32,27,,,,,,1.46,0.88,1.16,1*0E
message75 := $GNGSA,A,3,,,,,,,,,,,,,1.46,0.88,1.16,3*06
message76 := $GNGSA,A,3,11,12,14,33,42,43,,,,,,,1.46,0.88,1.16,4*06
message77 := $GNGSA,A,3,,,,,,,,,,,,,1.46,0.88,1.16,5*00
message78 := $GNGLL,3958.59305,N,03244.28511,E,072441.00,A,A*70
message79 := $GNRMC,072442.00,A,3958.59313,N,03244.28519,E,0.125,,260724,,,A,V*1C
message80 := $GNVTG,,T,,M,0.125,N,0.232,K,A*38
message81 := $GNGGA,072442.00,3958.59313,N,03244.28519,E,1,12,1.08,890.0,M,36.2,M,,*45
message82 := $GNGSA,A,3,08,10,15,16,26,32,27,,,,,,1.81,1.08,1.46,1*09
message83 := $GNGSA,A,3,,,,,,,,,,,,,1.81,1.08,1.46,3*01
message84 := $GNGSA,A,3,11,12,14,33,42,43,,,,,,,1.81,1.08,1.46,4*01
message85 := $GNGSA,A,3,,,,,,,,,,,,,1.81,1.08,1.46,5*07
message86 := $GPGSV,2,1,08,08,33,312,33,10,82,210,40,15,10,039,26,16,37,232,32,1*61
message87 := $GPGSV,2,2,08,23,,,31,26,15,202,14,27,68,304,45,32,22,156,23,1*55
message88 := $GPGSV,1,1,02,36,43,194,,49,36,219,,0*6B
message89 := $GAGSV,1,1,01,14,48,301,34,7*4E
message90 := $GBGSV,2,1,06,11,74,053,23,12,25,108,21,14,41,183,28,33,18,197,25,1*78
message91 := $GBGSV,2,2,06,42,61,150,31,43,69,327,38,1*72
message92 := $GQGSV,1,1,00,0*64
message93 := $GNGLL,3958.59313,N,03244.28519,E,072442.00,A,A*7C
message94 := $GNRMC,072443.00,A,3958.59320,N,03244.28523,E,0.106,,260724,,,A,V*15
message95 := $GNVTG,,T,,M,0.106,N,0.196,K,A*34
message96 := $GNGGA,072443.00,3958.59320,N,03244.28523,E,1,12,0.86,890.1,M,36.2,M,,*4B
message97 := $GNGSA,A,3,08,10,15,16,26,32,27,,,,,,1.38,0.86,1.07,1*09
message98 := $GNGSA,A,3,,,,,,,,,,,,,1.38,0.86,1.07,3*01
message99 := $GNGSA,A,3,11,12,14,33,42,43,,,,,,,1.38,0.86,1.07,4*01
message100 := $GNGSA,A,3,,,,,,,,,,,,,1.38,0.86,1.07,5*07
message101 := $GNGLL,3958.59320,N,03244.28523,E,072443.00,A,A*74
message102 := $GNRMC,072444.00,A,3958.59323,N,03244.28530,E,0.034,,260724,,,A,V*13
message103 := $GNVTG,,T,,M,0.034,N,0.063,K,A*3F
message104 := $GNGGA,072444.00,3958.59323,N,03244.28530,E,1,12,0.84,889.8,M,36.2,M,,*4E
message105 := $GNGSA,A,3,08,10,15,16,26,32,27,,,,,,1.32,0.84,1.03,1*05
message106 := $GNGSA,A,3,,,,,,,,,,,,,1.32,0.84,1.03,3*0D
message107 := $GNGSA,A,3,11,12,14,33,42,43,,,,,,,1.32,0.84,1.03,4*0D
message108 := $GNGSA,A,3,,,,,,,,,,,,,1.32,0.84,1.03,5*0B
